{
  "19e9b712d9": {
    "name": "North America Store",
    "street": "10800 NE 8th Street Suite 700",
    "city": "Bellevue",
    "country": "United States",
    "phone": "(888) 235-2699",
    "hours": "Every day: 8 AM - 8 PM",
    "image": "https://as1.ftcdn.net/jpg/02/31/64/42/500_F_231644277_t9lXHbXFHo6gDvfAWuesilO0Oi3KdjHN.jpg",
    "id": "19e9b712d9"
  },
  "4e4d61c876": {
    "name": "South America Store",
    "street": "Dorrego 2161 CÃ³digo postal 1414",
    "city": "Buenos Aires",
    "country": "Argentina",
    "phone": "(888) 235-2699",
    "hours": "Every day: 8 AM - 8 PM",
    "image": "https://as1.ftcdn.net/jpg/00/84/00/94/500_F_84009409_G5GfmWFRwLs6dNao6IHHKighLTzsMvIS.jpg",
    "id": "4e4d61c876"
  },
  "1d48d179f2": {
    "name": "European Store",
    "street": "3rd Floor Union House 182-194 Union Street",
    "city": "London",
    "country": "United Kingdom",
    "phone": "(888) 235-2699",
    "hours": "Every day: 8 AM - 8 PM",
    "image": "https://as1.ftcdn.net/jpg/02/91/18/12/500_F_291181289_4cN5Fitx7ZwL8RXlDpxFcqk3A1SYUveO.jpg",
    "id": "1d48d179f2"
  },
  "b2aabb9f1e": {
    "name": "Oceania Store",
    "street": "383 George Street",
    "city": "Sydney",
    "country": "Australia",
    "phone": "(888) 235-2699",
    "hours": "Every day: 8 AM - 8 PM",
    "image": "https://t3.ftcdn.net/jpg/02/95/75/48/240_F_295754851_XQSUkqDZzDzcSSJxnoy68pM206brj7o7.jpg",
    "id": "b2aabb9f1e"
  },
  "52bd11010a": {
    "name": "Japan Store",
    "street": "39F Shibuya Scramble Square 2-24-12",
    "city": "Tokyo",
    "country": "Japan",
    "phone": "(888) 235-2699",
    "hours": "Every day: 8 AM - 8 PM",
    "image": "https://t3.ftcdn.net/jpg/01/33/13/48/240_F_133134873_ktLD34JK6Wp1p0rjOZlCgsV23r800Cob.jpg",
    "id": "52bd11010a"
  },
  "989d6570c3": {
    "name": "South East Asia Store",
    "street": "36 Robinson Rd",
    "city": "Singapore",
    "country": "Singapore",
    "phone": "(888) 235-2699",
    "hours": "Every day: 8 AM - 8 PM",
    "image": "https://t4.ftcdn.net/jpg/02/93/51/57/240_F_293515785_sVcqJzerzoN0eGzvpsdQV8ykN2D9ss9b.jpg",
    "id": "989d6570c3"
  }
}
